,from_lat,from_lon,to_lat,to_lon,From Address,To Address
0,42.7178462,-70.9603211,42.4087279,-72.53947699999999,68+Tenney+St+Georgetown+MA, 169+Meadow+Street+Amherst+MA Load(531)
1,42.4087279,-72.53947699999999,42.3186646,-72.6278907, 169+Meadow+Street+Amherst+MA Load(531), 110+Pleasant+Street+Northampton+MA Load(495)
2,42.3186646,-72.6278907,42.70255299999999,-73.1843933, 110+Pleasant+Street+Northampton+MA Load(495), 238+Main+Street+Williamstow+MA Load(345)
3,42.70255299999999,-73.1843933,42.4587763,-73.2102578, 238+Main+Street+Williamstow+MA Load(345), 2+Larch+Street+Pittsfield+MA Load(330)
4,42.4587763,-73.2102578,42.1426463,-73.3633631, 2+Larch+Street+Pittsfield+MA Load(330), 1375+North+Main+Street+Sheffield+MA Load(300)
5,42.1426463,-73.3633631,42.2047079,-72.6045718, 1375+North+Main+Street+Sheffield+MA Load(300), 380+Dwight+Street+Holyoke+MA Load(250)
6,42.2047079,-72.6045718,42.3648033,-71.10212179999999, 380+Dwight+Street+Holyoke+MA Load(250), 541+Massachusetts+Ave+Cambridge+MA Load(100)
7,42.3648033,-71.10212179999999,42.7178462,-70.9603211, 541+Massachusetts+Ave+Cambridge+MA Load(100),68+Tenney+St+Georgetown+MA
8,42.3648033,-71.10212179999999,42.7178462,-70.9603211, 541+Massachusetts+Ave+Cambridge+MA Load(100),68+Tenney+St+Georgetown+MA
